name,url,street_address,city,state,zip_code,country,phone_number_1,open_hours,latitude,longitude
Harbormall Laemchabung,https://www.starbucks.com/store-locator/store/5771,"4/222, Moo 10, Sukhumvit Road",Sriracha,TH,20230,US,+668 4438 7445,"Wednesday : 7:00 AM to 8:30 PM, Thursday : 7:00 AM to 8:30 PM, Thursday : 7:00 AM to 8:30 PM, Friday : 7:00 AM to 8:30 PM, Saturday : 8:00 AM to 8:00 PM, Sunday : 8:00 AM to 8:00 PM, Monday : 7:00 AM to 8:30 PM",13.078819,100.920365
Siam Paragon 1st Floor,https://www.starbucks.com/store-locator/store/5774,"991 Common Area Siam Paragon 1 Floor, (In front of shop ALTA MODA), Rama I",Pathumwan,TH,10330,US,+668 4438 7410,"Wednesday : 10:00 AM to 10:00 PM, Thursday : 10:00 AM to 10:00 PM, Thursday : 10:00 AM to 10:00 PM, Friday : 10:00 AM to 10:00 PM, Saturday : 10:00 AM to 10:00 PM, Sunday : 10:00 AM to 10:00 PM, Monday : 10:00 AM to 10:00 PM",13.746847,100.534658
Queen Sirikit Center,https://www.starbucks.com/store-locator/store/5769,"60, New Ratchadapisek",Klongtoey,TH,10110,US,+668 4438 7448,"Wednesday : 7:00 AM to 8:00 PM, Thursday : 7:00 AM to 8:00 PM, Thursday : 7:00 AM to 8:00 PM, Friday : 7:00 AM to 8:00 PM, Saturday : 8:00 AM to 8:00 PM, Sunday : 8:00 AM to 5:00 PM, Monday : 7:00 AM to 8:00 PM",13.724775,100.559503
Vejthani Hospital,https://www.starbucks.com/store-locator/store/5773,"Vejthani Hospital, No.1, Soi Lardprao 111, Lardprao Road",Bangkapi,TH,10240,US,+668 4438 7449,"Wednesday : 7:30 AM to 9:00 PM, Thursday : 7:30 AM to 9:00 PM, Thursday : 7:30 AM to 9:00 PM, Friday : 7:30 AM to 9:00 PM, Saturday : 7:30 AM to 9:00 PM, Sunday : 7:30 AM to 9:00 PM, Monday : 7:30 AM to 9:00 PM",13.771584,100.636112
Central Chaengwattana,https://www.starbucks.com/store-locator/store/5768,Chaengwattana Rd,Bangkok,TH,,US,+668 4438 7446,"Wednesday : 7:30 AM to 9:30 PM, Thursday : 7:30 AM to 9:30 PM, Thursday : 7:30 AM to 9:30 PM, Friday : 7:30 AM to 10:00 PM, Saturday : 7:30 AM to 10:00 PM, Sunday : 7:30 AM to 9:30 PM, Monday : 7:30 AM to 9:30 PM",13.904169,100.527706
Siam Future Esplanade,https://www.starbucks.com/store-locator/store/5777,"99 Unit G04, Esplanade, Rachadapisek Road",Huaykwang,TH,10310,US,+668 4438 7403,"Wednesday : 7:00 AM to 10:00 PM, Thursday : 7:00 AM to 10:00 PM, Thursday : 7:00 AM to 10:00 PM, Friday : 7:00 AM to 10:00 PM, Saturday : 8:30 AM to 10:00 PM, Sunday : 8:30 AM to 10:00 PM, Monday : 7:00 AM to 10:00 PM",13.76604,100.57002
